{
  "file": "./models/stations.json",
  "stations": [
    {
      "name": "Tramore",
      "lat": 52.161435,
      "lng": -7.149295,
      "memberid": "e5b9eea7-3162-4c51-baa3-52ecc87045db",
      "_id": "01"
    },
    {
      "name": "Dunmore",
      "lat": 52.152767,
      "lng": -6.994804,
      "memberid": "229fc5e9-9b21-4705-81dc-95b9e8b27a53",
      "_id": "05"
    },
    {
      "name": "Tramore",
      "lat": 52.161435,
      "lng": -7.149295,
      "memberid": "599dd9b4-f1bf-4598-bf9d-e11e86d18cc4",
      "_id": "01"
    },
    {
      "name": "Dunmore",
      "lat": 52.152767,
      "lng": -6.994804,
      "memberid": "599dd9b4-f1bf-4598-bf9d-e11e86d18cc4",
      "_id": "05"
    },
    {
      "name": "Paris",
      "lat": 48.864716,
      "lng": 2.349014,
      "memberid": "229fc5e9-9b21-4705-81dc-95b9e8b27a53",
      "_id": "762b3d89-623f-432d-bf29-d8b0b28b27ce"
    },
    {
      "name": "Spiddal",
      "lat": 53.25317,
      "lng": -9.28181,
      "memberid": "599dd9b4-f1bf-4598-bf9d-e11e86d18cc4",
      "_id": "a06978e0-3f2a-4e82-8846-6b7fc8f4ec86"
    },
    {
      "name": "Barna",
      "lat": 53.250796,
      "lng": -9.147165,
      "memberid": "e5b9eea7-3162-4c51-baa3-52ecc87045db",
      "_id": "e1f31c16-7b65-43ee-aa26-ea35e38c6be8"
    },
    {
      "name": "Spiddal",
      "lat": 53.25317,
      "lng": -9.28181,
      "memberid": "e5b9eea7-3162-4c51-baa3-52ecc87045db",
      "_id": "9494e482-b43f-46fd-89b4-635803c87075"
    },
    {
      "name": "Galway",
      "lat": 53.270962,
      "lng": -9.062691,
      "memberid": "7df5c92f-2307-4672-82d0-14a3a4192230",
      "_id": "1bdb1ba0-d4a0-4b66-b42a-08f0d2733856"
    },
    {
      "name": "Galway",
      "lat": 53.270962,
      "lng": -9.062691,
      "memberid": "e5b9eea7-3162-4c51-baa3-52ecc87045db",
      "_id": "a8548763-1697-42f5-88da-806a674bebbb"
    },
    {
      "name": "Spiddal",
      "lat": 53.25317,
      "lng": -9.28181,
      "memberid": "229fc5e9-9b21-4705-81dc-95b9e8b27a53",
      "_id": "e7bf8a58-430c-436d-8213-282760bf1188"
    },
    {
      "name": "Lampedusa",
      "lat": 35.508622,
      "lng": 12.592920,
      "memberid": "e5b9eea7-3162-4c51-baa3-52ecc87045db",
      "_id": "d3d71c3b-cfa7-4435-87c6-15ae84280503"
    },
    {
      "name": "Cagliari",
      "lat": 39.223841,
      "lng": 9.121661,
      "memberid": "599dd9b4-f1bf-4598-bf9d-e11e86d18cc4",
      "_id": "8dd98760-1ec9-4ecf-b2fb-2937b74585c9"
    }
  ]
}